{
  "SEK402": {
    "name": "Sequoia NP",
    "lat": 36.4886,
    "lon": -118.8284,
    "elev": 1920,
    "coast_km": 221.2,
    "marine": "INLAND",
    "region": "Sierra Nevada South",
    "status": "TRAIN_ONLY",
    "yr_start": 1997,
    "yr_end": 2004,
    "n_rows": 54390,
    "pct_valid": 1.0
  },
  "YOS404": {
    "name": "Yosemite NP",
    "lat": 37.7133,
    "lon": -119.7069,
    "elev": 1603,
    "coast_km": 229.7,
    "marine": "INLAND",
    "region": "Sierra Nevada Central",
    "status": "ACTIVE",
    "yr_start": 1995,
    "yr_end": 2025,
    "n_rows": 245008,
    "pct_valid": 1.0
  },
  "JOT403": {
    "name": "Joshua Tree NP",
    "lat": 34.0617,
    "lon": -116.3873,
    "elev": 1244,
    "coast_km": 179.7,
    "marine": "TRANSITION",
    "region": "Mojave Desert",
    "status": "ACTIVE",
    "yr_start": 1995,
    "yr_end": 2025,
    "n_rows": 244399,
    "pct_valid": 1.0
  },
  "LAV410": {
    "name": "Lassen Volcanic NP",
    "lat": 40.5402,
    "lon": -121.5763,
    "elev": 1756,
    "coast_km": 225.5,
    "marine": "INLAND",
    "region": "Cascades",
    "status": "ACTIVE",
    "yr_start": 1995,
    "yr_end": 2025,
    "n_rows": 242746,
    "pct_valid": 1.0
  },
  "TRI193": {
    "name": "Trinity",
    "lat": 40.9603,
    "lon": -122.9547,
    "elev": 744,
    "coast_km": 134.9,
    "marine": "TRANSITION",
    "region": "Northern Coast Range",
    "status": "ACTIVE",
    "yr_start": 0,
    "yr_end": 0,
    "n_rows": 0,
    "pct_valid": 0.0
  },
  "PIN414": {
    "name": "Pinnacles NP",
    "lat": 36.4855,
    "lon": -121.1824,
    "elev": 335,
    "coast_km": 64.5,
    "marine": "COASTAL",
    "region": "Central Coast",
    "status": "ACTIVE",
    "yr_start": 1995,
    "yr_end": 2025,
    "n_rows": 250345,
    "pct_valid": 1.0
  },
  "SND152": {
    "name": "San Bernardino NF",
    "lat": 34.1939,
    "lon": -116.773,
    "elev": 1737,
    "coast_km": 149.5,
    "marine": "TRANSITION",
    "region": "Southern California Mountains",
    "status": "ACTIVE",
    "yr_start": 1990,
    "yr_end": 2024,
    "n_rows": 274143,
    "pct_valid": 1.0
  },
  "ABF404": {
    "name": "Angeles Big Bear",
    "lat": 34.2059,
    "lon": -116.9113,
    "elev": 2065,
    "coast_km": 138.2,
    "marine": "TRANSITION",
    "region": "San Bernardino Mountains",
    "status": "ACTIVE",
    "yr_start": 0,
    "yr_end": 0,
    "n_rows": 0,
    "pct_valid": 0.0
  },
  "SAN405": {
    "name": "San Gabriel",
    "lat": 34.2339,
    "lon": -117.761,
    "elev": 1161,
    "coast_km": 75.1,
    "marine": "COASTAL",
    "region": "San Gabriel Mountains",
    "status": "ACTIVE",
    "yr_start": 0,
    "yr_end": 0,
    "n_rows": 0,
    "pct_valid": 0.0
  },
  "CAN407": {
    "name": "Cabrillo NM",
    "lat": 32.6735,
    "lon": -117.2425,
    "elev": 80,
    "coast_km": 19.1,
    "marine": "COASTAL",
    "region": "Southern Coast",
    "status": "ACTIVE",
    "yr_start": 1995,
    "yr_end": 2025,
    "n_rows": 246689,
    "pct_valid": 1.0
  }
}